timestamp,IMU_9e15c6_w,IMU_9e15c6_x,IMU_9e15c6_y,IMU_9e15c6_z,IMU_6dee46_w,IMU_6dee46_x,IMU_6dee46_y,IMU_6dee46_z,IMU_c22f23_w,IMU_c22f23_x,IMU_c22f23_y,IMU_c22f23_z
1777990477.5785594,0.9999538064002991,0.007710741832852364,0.005745844915509224,0.00013650076289195567,0.9340912699699402,0.17216600477695465,0.0425591804087162,0.30987271666526794,0.1743573099374771,0.845936119556427,0.4894404113292694,0.12016555666923523
1777990477.5835648,0.9999538064002991,0.007710741832852364,0.005745844915509224,0.00013650076289195567,0.9340912699699402,0.17216600477695465,0.0425591804087162,0.30987271666526794,0.1743573099374771,0.845936119556427,0.4894404113292694,0.12016555666923523
1777990477.5885594,0.9999538064002991,0.007710741832852364,0.005745844915509224,0.00013650076289195567,0.9340912699699402,0.17216600477695465,0.0425591804087162,0.30987271666526794,0.1743573099374771,0.845936119556427,0.4894404113292694,0.12016555666923523
1777990477.5935633,0.9999536871910095,0.007737067528069019,0.005731848534196615,0.00012417782272677869,0.9340912699699402,0.17216600477695465,0.0425591804087162,0.30987271666526794,0.1743573099374771,0.845936119556427,0.4894404113292694,0.12016555666923523
1777990477.5985644,0.9999536871910095,0.007737067528069019,0.005731848534196615,0.00012417782272677869,0.9340912699699402,0.17216600477695465,0.0425591804087162,0.30987271666526794,0.1746802181005478,0.8441521525382996,0.4921410381793976,0.12120742350816727
1777990477.6035604,0.9999536275863647,0.0077500855550169945,0.0057306247763335705,0.00011995344539172947,0.9340912699699402,0.17216600477695465,0.0425591804087162,0.30987271666526794,0.1746802181005478,0.8441521525382996,0.4921410381793976,0.12120742350816727
1777990477.608562,0.9999536275863647,0.0077500855550169945,0.0057306247763335705,0.00011995344539172947,0.9330437779426575,0.1721092164516449,0.043240658938884735,0.31295040249824524,0.1746802181005478,0.8441521525382996,0.4921410381793976,0.12120742350816727
1777990477.613561,0.9999536275863647,0.0077500855550169945,0.0057306247763335705,0.00011995344539172947,0.9330437779426575,0.1721092164516449,0.043240658938884735,0.31295040249824524,0.1746802181005478,0.8441521525382996,0.4921410381793976,0.12120742350816727
1777990477.618562,0.9999536275863647,0.0077500855550169945,0.0057306247763335705,0.00011995344539172947,0.9330437779426575,0.1721092164516449,0.043240658938884735,0.31295040249824524,0.1746802181005478,0.8441521525382996,0.4921410381793976,0.12120742350816727
1777990477.62356,0.9999536275863647,0.0077500855550169945,0.0057306247763335705,0.00011995344539172947,0.9330437779426575,0.1721092164516449,0.043240658938884735,0.31295040249824524,0.1746802181005478,0.8441521525382996,0.4921410381793976,0.12120742350816727
1777990477.6285603,0.9999536275863647,0.0077500855550169945,0.0057306247763335705,0.00011995344539172947,0.9330437779426575,0.1721092164516449,0.043240658938884735,0.31295040249824524,0.17623373866081238,0.8424310088157654,0.49420586228370667,0.1225242018699646
1777990477.6335645,0.9999536275863647,0.0077500855550169945,0.0057306247763335705,0.00011995344539172947,0.9330437779426575,0.1721092164516449,0.043240658938884735,0.31295040249824524,0.17623373866081238,0.8424310088157654,0.49420586228370667,0.1225242018699646
1777990477.6385612,0.9999536275863647,0.0077500855550169945,0.0057306247763335705,0.00011995344539172947,0.9326093196868896,0.17206433415412903,0.043494101613759995,0.31423234939575195,0.17623373866081238,0.8424310088157654,0.49420586228370667,0.1225242018699646
1777990477.6435645,0.9999536275863647,0.0077500855550169945,0.0057306247763335705,0.00011995344539172947,0.9326093196868896,0.17206433415412903,0.043494101613759995,0.31423234939575195,0.17623373866081238,0.8424310088157654,0.49420586228370667,0.1225242018699646
1777990477.648563,0.9999536275863647,0.0077500855550169945,0.0057306247763335705,0.00011995344539172947,0.9326093196868896,0.17206433415412903,0.043494101613759995,0.31423234939575195,0.17623373866081238,0.8424310088157654,0.49420586228370667,0.1225242018699646
1777990477.6535668,0.9999536275863647,0.0077500855550169945,0.0057306247763335705,0.00011995344539172947,0.9326093196868896,0.17206433415412903,0.043494101613759995,0.31423234939575195,0.17623373866081238,0.8424310088157654,0.49420586228370667,0.1225242018699646
1777990477.6585655,0.9999536275863647,0.0077500855550169945,0.0057306247763335705,0.00011995344539172947,0.9326093196868896,0.17206433415412903,0.043494101613759995,0.31423234939575195,0.17867764830589294,0.8407813906669617,0.49566560983657837,0.12440550327301025
1777990477.6635675,0.99995356798172,0.0077812932431697845,0.005691825412213802,8.41914297780022e-05,0.9326093196868896,0.17206433415412903,0.043494101613759995,0.31423234939575195,0.17867764830589294,0.8407813906669617,0.49566560983657837,0.12440550327301025
1777990477.668563,0.9999537467956543,0.007780645042657852,0.005649246275424957,4.750942389364354e-05,0.9326093196868896,0.17206433415412903,0.043494101613759995,0.31423234939575195,0.17867764830589294,0.8407813906669617,0.49566560983657837,0.12440550327301025
1777990477.673562,0.9999537467956543,0.007780645042657852,0.005649246275424957,4.750942389364354e-05,0.9318400621414185,0.17197006940841675,0.043901003897190094,0.31650131940841675,0.17867764830589294,0.8407813906669617,0.49566560983657837,0.12440550327301025
1777990477.678561,0.9999537467956543,0.007780645042657852,0.005649246275424957,4.750942389364354e-05,0.9318400621414185,0.17197006940841675,0.043901003897190094,0.31650131940841675,0.17867764830589294,0.8407813906669617,0.49566560983657837,0.12440550327301025
1777990477.6835659,0.9999537467956543,0.007780645042657852,0.005649246275424957,4.750942389364354e-05,0.9318400621414185,0.17197006940841675,0.043901003897190094,0.31650131940841675,0.17867764830589294,0.8407813906669617,0.49566560983657837,0.12440550327301025
1777990477.6885614,0.9999537467956543,0.007780645042657852,0.005649246275424957,4.750942389364354e-05,0.9312384128570557,0.17189723253250122,0.044307202100753784,0.31825053691864014,0.17867764830589294,0.8407813906669617,0.49566560983657837,0.12440550327301025
1777990477.6938736,0.9999540448188782,0.007749968208372593,0.005648582708090544,4.693138907896355e-05,0.9312384128570557,0.17189723253250122,0.044307202100753784,0.31825053691864014,0.17867764830589294,0.8407813906669617,0.49566560983657837,0.12440550327301025
1777990477.6985712,0.9999540448188782,0.007749968208372593,0.005648582708090544,4.693138907896355e-05,0.9312384128570557,0.17189723253250122,0.044307202100753784,0.31825053691864014,0.17867764830589294,0.8407813906669617,0.49566560983657837,0.12440550327301025
1777990477.7035668,0.9999540448188782,0.007749968208372593,0.005648582708090544,4.693138907896355e-05,0.9312384128570557,0.17189723253250122,0.044307202100753784,0.31825053691864014,0.18184709548950195,0.8392277956008911,0.4965968728065491,0.126569926738739
1777990477.7085626,0.9999536871910095,0.007775696460157633,0.005679633002728224,7.885888771852478e-05,0.9312384128570557,0.17189723253250122,0.044307202100753784,0.31825053691864014,0.18184709548950195,0.8392277956008911,0.4965968728065491,0.126569926738739
1777990477.7135673,0.9999536871910095,0.007775696460157633,0.005679633002728224,7.885888771852478e-05,0.930713415145874,0.17197343707084656,0.04467775300145149,0.31968992948532104,0.18184709548950195,0.8392277956008911,0.4965968728065491,0.126569926738739
1777990477.7185645,0.9999536871910095,0.007775696460157633,0.005679633002728224,7.885888771852478e-05,0.930713415145874,0.17197343707084656,0.04467775300145149,0.31968992948532104,0.18184709548950195,0.8392277956008911,0.4965968728065491,0.126569926738739
1777990477.7235715,0.9999536871910095,0.007775696460157633,0.005679633002728224,7.885888771852478e-05,0.930713415145874,0.17197343707084656,0.04467775300145149,0.31968992948532104,0.18184709548950195,0.8392277956008911,0.4965968728065491,0.126569926738739
1777990477.7285714,0.9999536871910095,0.007775696460157633,0.005679633002728224,7.885888771852478e-05,0.9304762482643127,0.17207089066505432,0.04487169533967972,0.32030007243156433,0.18184709548950195,0.8392277956008911,0.4965968728065491,0.126569926738739
1777990477.733563,0.9999536871910095,0.007775696460157633,0.005679633002728224,7.885888771852478e-05,0.9304762482643127,0.17207089066505432,0.04487169533967972,0.32030007243156433,0.18470200896263123,0.8380503058433533,0.4970412850379944,0.1284792274236679
1777990477.7385678,0.9999523758888245,0.00788960512727499,0.005745370406657457,0.0001502769155194983,0.9304762482643127,0.17207089066505432,0.04487169533967972,0.32030007243156433,0.18470200896263123,0.8380503058433533,0.4970412850379944,0.1284792274236679
1777990477.7435656,0.9999523758888245,0.00788960512727499,0.005745370406657457,0.0001502769155194983,0.9304762482643127,0.17207089066505432,0.04487169533967972,0.32030007243156433,0.18470200896263123,0.8380503058433533,0.4970412850379944,0.1284792274236679
1777990477.748572,0.9999523758888245,0.00788960512727499,0.005745370406657457,0.0001502769155194983,0.9304762482643127,0.17207089066505432,0.04487169533967972,0.32030007243156433,0.18578274548053741,0.8375805616378784,0.49721574783325195,0.1293063461780548
1777990477.7535644,0.9999520778656006,0.007905217818915844,0.005773658864200115,0.00018197274766862392,0.9304762482643127,0.17207089066505432,0.04487169533967972,0.32030007243156433,0.18578274548053741,0.8375805616378784,0.49721574783325195,0.1293063461780548
1777990477.758571,0.9999520778656006,0.007905217818915844,0.005773658864200115,0.00018197274766862392,0.9304762482643127,0.17207089066505432,0.04487169533967972,0.32030007243156433,0.18578274548053741,0.8375805616378784,0.49721574783325195,0.1293063461780548
1777990477.7635639,0.9999520778656006,0.007905217818915844,0.005773658864200115,0.00018197274766862392,0.9304762482643127,0.17207089066505432,0.04487169533967972,0.32030007243156433,0.18578274548053741,0.8375805616378784,0.49721574783325195,0.1293063461780548
1777990477.7685647,0.9999520778656006,0.007905217818915844,0.005773658864200115,0.00018197274766862392,0.9304762482643127,0.17207089066505432,0.04487169533967972,0.32030007243156433,0.18578274548053741,0.8375805616378784,0.49721574783325195,0.1293063461780548
1777990477.7735653,0.9999520778656006,0.007905217818915844,0.005773658864200115,0.00018197274766862392,0.9301314353942871,0.17230038344860077,0.04523080959916115,0.3211264908313751,0.18578274548053741,0.8375805616378784,0.49721574783325195,0.1293063461780548
1777990477.7785647,0.9999520778656006,0.007905217818915844,0.005773658864200115,0.00018197274766862392,0.9301314353942871,0.17230038344860077,0.04523080959916115,0.3211264908313751,0.1882193386554718,0.8367466926574707,0.49729567766189575,0.1308647245168686
1777990477.7835665,0.9999520778656006,0.007871974259614944,0.005821117665618658,0.00021361805556807667,0.9301314353942871,0.17230038344860077,0.04523080959916115,0.3211264908313751,0.1882193386554718,0.8367466926574707,0.49729567766189575,0.1308647245168686
1777990477.788569,0.9999520778656006,0.007871974259614944,0.005821117665618658,0.00021361805556807667,0.9299960732460022,0.17239834368228912,0.04535151273012161,0.32144880294799805,0.1882193386554718,0.8367466926574707,0.49729567766189575,0.1308647245168686
1777990477.793571,0.9999520778656006,0.007871974259614944,0.005821117665618658,0.00021361805556807667,0.9299960732460022,0.17239834368228912,0.04535151273012161,0.32144880294799805,0.18964752554893494,0.8363590240478516,0.4971630573272705,0.13178090751171112
1777990477.7985713,0.9999517202377319,0.007880965247750282,0.0058637959882617,0.0002513749059289694,0.9299960732460022,0.17239834368228912,0.04535151273012161,0.32144880294799805,0.18964752554893494,0.8363590240478516,0.4971630573272705,0.13178090751171112
1777990477.8035662,0.9999517202377319,0.007880965247750282,0.0058637959882617,0.0002513749059289694,0.9299960732460022,0.17239834368228912,0.04535151273012161,0.32144880294799805,0.18964752554893494,0.8363590240478516,0.4971630573272705,0.13178090751171112
1777990477.8085697,0.9999517202377319,0.007880965247750282,0.0058637959882617,0.0002513749059289694,0.9299960732460022,0.17239834368228912,0.04535151273012161,0.32144880294799805,0.18964752554893494,0.8363590240478516,0.4971630573272705,0.13178090751171112
1777990477.813564,0.9999517202377319,0.007880965247750282,0.0058637959882617,0.0002513749059289694,0.9299960732460022,0.17239834368228912,0.04535151273012161,0.32144880294799805,0.18964752554893494,0.8363590240478516,0.4971630573272705,0.13178090751171112
1777990477.8185675,0.9999517202377319,0.007880965247750282,0.0058637959882617,0.0002513749059289694,0.9297764897346497,0.17271339893341064,0.04562125355005264,0.32187673449516296,0.18964752554893494,0.8363590240478516,0.4971630573272705,0.13178090751171112
1777990477.8235884,0.9999517202377319,0.007880965247750282,0.0058637959882617,0.0002513749059289694,0.9297764897346497,0.17271339893341064,0.04562125355005264,0.32187673449516296,0.1932404637336731,0.835574746131897,0.4965205788612366,0.13394197821617126
1777990477.8285644,0.9999508857727051,0.007889828644692898,0.0059931534342467785,0.00036585709312930703,0.9297764897346497,0.17271339893341064,0.04562125355005264,0.32187673449516296,0.1932404637336731,0.835574746131897,0.4965205788612366,0.13394197821617126
1777990477.8335679,0.9999508857727051,0.007889828644692898,0.0059931534342467785,0.00036585709312930703,0.9294981956481934,0.17399093508720398,0.04620776325464249,0.32190844416618347,0.1932404637336731,0.835574746131897,0.4965205788612366,0.13394197821617126
1777990477.8385727,0.9999508857727051,0.007889828644692898,0.0059931534342467785,0.00036585709312930703,0.9294981956481934,0.17399093508720398,0.04620776325464249,0.32190844416618347,0.19517070055007935,0.8352237939834595,0.49605658650398254,0.13504621386528015
1777990477.8435671,0.9999505877494812,0.007886607199907303,0.006033490877598524,0.00040837028063833714,0.9294981956481934,0.17399093508720398,0.04620776325464249,0.32190844416618347,0.19517070055007935,0.8352237939834595,0.49605658650398254,0.13504621386528015
1777990477.8485742,0.9999505877494812,0.007886607199907303,0.006033490877598524,0.00040837028063833714,0.929431676864624,0.1743566393852234,0.04636361449956894,0.3218805491924286,0.19517070055007935,0.8352237939834595,0.49605658650398254,0.13504621386528015
1777990477.8535714,0.9999505877494812,0.007886607199907303,0.006033490877598524,0.00040837028063833714,0.929431676864624,0.1743566393852234,0.04636361449956894,0.3218805491924286,0.19517070055007935,0.8352237939834595,0.49605658650398254,0.13504621386528015
1777990477.858571,0.9999505877494812,0.007886607199907303,0.006033490877598524,0.00040837028063833714,0.929431676864624,0.1743566393852234,0.04636361449956894,0.3218805491924286,0.19517070055007935,0.8352237939834595,0.49605658650398254,0.13504621386528015
1777990477.8635685,0.9999505877494812,0.007886607199907303,0.006033490877598524,0.00040837028063833714,0.929431676864624,0.1743566393852234,0.04636361449956894,0.3218805491924286,0.19517070055007935,0.8352237939834595,0.49605658650398254,0.13504621386528015
1777990477.8685691,0.9999505877494812,0.007886607199907303,0.006033490877598524,0.00040837028063833714,0.929431676864624,0.1743566393852234,0.04636361449956894,0.3218805491924286,0.19517070055007935,0.8352237939834595,0.49605658650398254,0.13504621386528015
1777990477.873568,0.9999499917030334,0.007914727553725243,0.006102326326072216,0.00048619305016472936,0.929431676864624,0.1743566393852234,0.04636361449956894,0.3218805491924286,0.19517070055007935,0.8352237939834595,0.49605658650398254,0.13504621386528015
1777990477.8785748,0.9999499917030334,0.007914727553725243,0.006102326326072216,0.00048619305016472936,0.9288260340690613,0.177700936794281,0.04755450412631035,0.32162579894065857,0.19517070055007935,0.8352237939834595,0.49605658650398254,0.13504621386528015
1777990477.8835707,0.9999499917030334,0.007914727553725243,0.006102326326072216,0.00048619305016472936,0.9288260340690613,0.177700936794281,0.04755450412631035,0.32162579894065857,0.19805315136909485,0.8346526622772217,0.49538785219192505,0.13682404160499573
1777990477.888568,0.9999496936798096,0.007956285960972309,0.00609069038182497,0.000485305703477934,0.9288260340690613,0.177700936794281,0.04755450412631035,0.32162579894065857,0.19805315136909485,0.8346526622772217,0.49538785219192505,0.13682404160499573
1777990477.8935735,0.9999496936798096,0.007956285960972309,0.00609069038182497,0.000485305703477934,0.9280490279197693,0.18193842470645905,0.04891397804021835,0.3212955594062805,0.19805315136909485,0.8346526622772217,0.49538785219192505,0.13682404160499573
1777990477.8985653,0.9999496936798096,0.007956285960972309,0.00609069038182497,0.000485305703477934,0.9280490279197693,0.18193842470645905,0.04891397804021835,0.3212955594062805,0.1985923945903778,0.8345221281051636,0.4953070282936096,0.13713078200817108
1777990477.9035742,0.9999496936798096,0.007956285960972309,0.00609069038182497,0.000485305703477934,0.9280490279197693,0.18193842470645905,0.04891397804021835,0.3212955594062805,0.1985923945903778,0.8345221281051636,0.4953070282936096,0.13713078200817108
1777990477.9085698,0.9999496936798096,0.007956285960972309,0.00609069038182497,0.000485305703477934,0.9280490279197693,0.18193842470645905,0.04891397804021835,0.3212955594062805,0.1985923945903778,0.8345221281051636,0.4953070282936096,0.13713078200817108
1777990477.9135752,0.9999496936798096,0.007956285960972309,0.00609069038182497,0.000485305703477934,0.9280490279197693,0.18193842470645905,0.04891397804021835,0.3212955594062805,0.1985923945903778,0.8345221281051636,0.4953070282936096,0.13713078200817108
1777990477.9185758,0.9999496936798096,0.007956285960972309,0.00609069038182497,0.000485305703477934,0.9280490279197693,0.18193842470645905,0.04891397804021835,0.3212955594062805,0.1985923945903778,0.8345221281051636,0.4953070282936096,0.13713078200817108
1777990477.9235754,0.9999496936798096,0.007956285960972309,0.00609069038182497,0.000485305703477934,0.9268210530281067,0.1882522702217102,0.05086491256952286,0.3208998143672943,0.1985923945903778,0.8345221281051636,0.4953070282936096,0.13713078200817108
1777990477.9285724,0.9999496936798096,0.007956285960972309,0.00609069038182497,0.000485305703477934,0.9268210530281067,0.1882522702217102,0.05086491256952286,0.3208998143672943,0.19907967746257782,0.8342854976654053,0.49549004435539246,0.13720260560512543
1777990477.9335694,0.9999499320983887,0.007985294796526432,0.006023274268954992,0.00040076024015434086,0.9268210530281067,0.1882522702217102,0.05086491256952286,0.3208998143672943,0.19907967746257782,0.8342854976654053,0.49549004435539246,0.13720260560512543
1777990477.938576,0.99994957447052,0.0080117704346776,0.006043730303645134,0.00041405807132832706,0.9261770248413086,0.1917022168636322,0.052046891301870346,0.3205268979072571,0.19907967746257782,0.8342854976654053,0.49549004435539246,0.13720260560512543
1777990477.943778,0.99994957447052,0.0080117704346776,0.006043730303645134,0.00041405807132832706,0.9261770248413086,0.1917022168636322,0.052046891301870346,0.3205268979072571,0.19877338409423828,0.8344826698303223,0.49532610177993774,0.13703984022140503
1777990477.9485748,0.99994957447052,0.0080117704346776,0.006043730303645134,0.00041405807132832706,0.9261770248413086,0.1917022168636322,0.052046891301870346,0.3205268979072571,0.19877338409423828,0.8344826698303223,0.49532610177993774,0.13703984022140503
1777990477.9535737,0.99994957447052,0.0080117704346776,0.006043730303645134,0.00041405807132832706,0.9261770248413086,0.1917022168636322,0.052046891301870346,0.3205268979072571,0.19877338409423828,0.8344826698303223,0.49532610177993774,0.13703984022140503
1777990477.9585671,0.99994957447052,0.0080117704346776,0.006043730303645134,0.00041405807132832706,0.9261770248413086,0.1917022168636322,0.052046891301870346,0.3205268979072571,0.19879060983657837,0.8345167636871338,0.4952702224254608,0.13700930774211884
1777990477.9635723,0.99994957447052,0.0080117704346776,0.006043730303645134,0.00041405807132832706,0.9261770248413086,0.1917022168636322,0.052046891301870346,0.3205268979072571,0.19879060983657837,0.8345167636871338,0.4952702224254608,0.13700930774211884
1777990477.9685745,0.99994957447052,0.0080117704346776,0.006043730303645134,0.00041405807132832706,0.9248144030570984,0.19898943603038788,0.05441530421376228,0.3196256458759308,0.19879060983657837,0.8345167636871338,0.4952702224254608,0.13700930774211884
1777990477.9735684,0.99994957447052,0.0080117704346776,0.006043730303645134,0.00041405807132832706,0.9248144030570984,0.19898943603038788,0.05441530421376228,0.3196256458759308,0.19879060983657837,0.8345167636871338,0.4952702224254608,0.13700930774211884
1777990477.978569,0.99994957447052,0.0080117704346776,0.006043730303645134,0.00041405807132832706,0.9248144030570984,0.19898943603038788,0.05441530421376228,0.3196256458759308,0.19879060983657837,0.8345167636871338,0.4952702224254608,0.13700930774211884
1777990477.9835732,0.9999485611915588,0.00805644504725933,0.006145142018795013,0.0005214079283177853,0.9241065979003906,0.20267122983932495,0.05564256012439728,0.31914791464805603,0.19879060983657837,0.8345167636871338,0.4952702224254608,0.13700930774211884
1777990477.988569,0.9999485611915588,0.00805644504725933,0.006145142018795013,0.0005214079283177853,0.9241065979003906,0.20267122983932495,0.05564256012439728,0.31914791464805603,0.19879060983657837,0.8345167636871338,0.4952702224254608,0.13700930774211884
1777990477.993568,0.999948263168335,0.00806883443146944,0.006173834204673767,0.0005725804367102683,0.9241065979003906,0.20267122983932495,0.05564256012439728,0.31914791464805603,0.19879060983657837,0.8345167636871338,0.4952702224254608,0.13700930774211884
1777990477.9985747,0.999948263168335,0.00806883443146944,0.006173834204673767,0.0005725804367102683,0.9241065979003906,0.20267122983932495,0.05564256012439728,0.31914791464805603,0.19879060983657837,0.8345167636871338,0.4952702224254608,0.13700930774211884
1777990478.003573,0.999948263168335,0.00806883443146944,0.006173834204673767,0.0005725804367102683,0.9241065979003906,0.20267122983932495,0.05564256012439728,0.31914791464805603,0.19888266921043396,0.8346476554870605,0.4949750304222107,0.1371443271636963
1777990478.0085762,0.999948263168335,0.00806883443146944,0.006173834204673767,0.0005725804367102683,0.9241065979003906,0.20267122983932495,0.05564256012439728,0.31914791464805603,0.19893456995487213,0.8350033164024353,0.494329035282135,0.1372344195842743
1777990478.013571,0.999948263168335,0.00806883443146944,0.006173834204673767,0.0005725804367102683,0.9241065979003906,0.20267122983932495,0.05564256012439728,0.31914791464805603,0.19893456995487213,0.8350033164024353,0.494329035282135,0.1372344195842743
1777990478.0185702,0.999948263168335,0.00806883443146944,0.006173834204673767,0.0005725804367102683,0.9228214621543884,0.2096499353647232,0.0577857531607151,0.3179754912853241,0.19893456995487213,0.8350033164024353,0.494329035282135,0.1372344195842743
1777990478.0235722,0.999948263168335,0.00806883443146944,0.006173834204673767,0.0005725804367102683,0.9228214621543884,0.2096499353647232,0.0577857531607151,0.3179754912853241,0.19893456995487213,0.8350033164024353,0.494329035282135,0.1372344195842743
1777990478.0285723,0.999948263168335,0.00806883443146944,0.006173834204673767,0.0005725804367102683,0.9223756194114685,0.21259774267673492,0.05851037800312042,0.3171779215335846,0.19893456995487213,0.8350033164024353,0.494329035282135,0.1372344195842743
1777990478.0335784,0.999948263168335,0.00806883443146944,0.006173834204673767,0.0005725804367102683,0.9223756194114685,0.21259774267673492,0.05851037800312042,0.3171779215335846,0.19929802417755127,0.835335373878479,0.4936595857143402,0.13709594309329987
1777990478.0385716,0.9999483823776245,0.00811490137130022,0.006102766841650009,0.0004868906398769468,0.9223756194114685,0.21259774267673492,0.05851037800312042,0.3171779215335846,0.19929802417755127,0.835335373878479,0.4936595857143402,0.13709594309329987
1777990478.0435781,0.9999483823776245,0.00811490137130022,0.006102766841650009,0.0004868906398769468,0.9223756194114685,0.21259774267673492,0.05851037800312042,0.3171779215335846,0.19929802417755127,0.835335373878479,0.4936595857143402,0.13709594309329987
1777990478.0485713,0.9999483823776245,0.00811490137130022,0.006102766841650009,0.0004868906398769468,0.9223756194114685,0.21259774267673492,0.05851037800312042,0.3171779215335846,0.20019610226154327,0.8355870246887207,0.49286162853240967,0.1371251940727234
1777990478.0535712,0.9999483823776245,0.00811490137130022,0.006102766841650009,0.0004868906398769468,0.9223756194114685,0.21259774267673492,0.05851037800312042,0.3171779215335846,0.20019610226154327,0.8355870246887207,0.49286162853240967,0.1371251940727234
1777990478.0585787,0.9999483823776245,0.00811490137130022,0.006102766841650009,0.0004868906398769468,0.9220965504646301,0.21669505536556244,0.059160713106393814,0.31508928537368774,0.20019610226154327,0.8355870246887207,0.49286162853240967,0.1371251940727234
1777990478.0635724,0.9999483823776245,0.00811490137130022,0.006102766841650009,0.0004868906398769468,0.9220965504646301,0.21669505536556244,0.059160713106393814,0.31508928537368774,0.20019610226154327,0.8355870246887207,0.49286162853240967,0.1371251940727234
1777990478.0685797,0.999949038028717,0.008174508810043335,0.0059211947955191135,0.0002920291153714061,0.9220965504646301,0.21669505536556244,0.059160713106393814,0.31508928537368774,0.20019610226154327,0.8355870246887207,0.49286162853240967,0.1371251940727234
1777990478.0735755,0.999949038028717,0.008174508810043335,0.0059211947955191135,0.0002920291153714061,0.9222527742385864,0.21773329377174377,0.059015508741140366,0.31394144892692566,0.20019610226154327,0.8355870246887207,0.49286162853240967,0.1371251940727234
1777990478.0785754,0.999949038028717,0.008174508810043335,0.0059211947955191135,0.0002920291153714061,0.9222527742385864,0.21773329377174377,0.059015508741140366,0.31394144892692566,0.2044297158718109,0.8357065320014954,0.4905961751937866,0.13827000558376312
1777990478.0835707,0.9999494552612305,0.008167188614606857,0.005862739402800798,0.0002320804342161864,0.9222527742385864,0.21773329377174377,0.059015508741140366,0.31394144892692566,0.2044297158718109,0.8357065320014954,0.4905961751937866,0.13827000558376312
1777990478.0885732,0.9999494552612305,0.008167188614606857,0.005862739402800798,0.0002320804342161864,0.9222527742385864,0.21773329377174377,0.059015508741140366,0.31394144892692566,0.2044297158718109,0.8357065320014954,0.4905961751937866,0.13827000558376312
1777990478.0935764,0.9999494552612305,0.008167188614606857,0.005862739402800798,0.0002320804342161864,0.9222527742385864,0.21773329377174377,0.059015508741140366,0.31394144892692566,0.20774006843566895,0.8356732130050659,0.4888730049133301,0.13963383436203003
1777990478.0985765,0.9999494552612305,0.008167188614606857,0.005862739402800798,0.0002320804342161864,0.9222527742385864,0.21773329377174377,0.059015508741140366,0.31394144892692566,0.20774006843566895,0.8356732130050659,0.4888730049133301,0.13963383436203003
1777990478.1035724,0.9999494552612305,0.008167188614606857,0.005862739402800798,0.0002320804342161864,0.9233254790306091,0.21778294444084167,0.05816927179694176,0.3108973205089569,0.20774006843566895,0.8356732130050659,0.4888730049133301,0.13963383436203003
1777990478.1085725,0.9999494552612305,0.008167188614606857,0.005862739402800798,0.0002320804342161864,0.9233254790306091,0.21778294444084167,0.05816927179694176,0.3108973205089569,0.20774006843566895,0.8356732130050659,0.4888730049133301,0.13963383436203003
1777990478.113571,0.9999494552612305,0.008167188614606857,0.005862739402800798,0.0002320804342161864,0.9233254790306091,0.21778294444084167,0.05816927179694176,0.3108973205089569,0.20774006843566895,0.8356732130050659,0.4888730049133301,0.13963383436203003
1777990478.1185782,0.9999494552612305,0.008167188614606857,0.005862739402800798,0.0002320804342161864,0.9241017699241638,0.21726515889167786,0.05757976695895195,0.3090570569038391,0.20774006843566895,0.8356732130050659,0.4888730049133301,0.13963383436203003
1777990478.1235712,0.9999494552612305,0.008167188614606857,0.005862739402800798,0.0002320804342161864,0.9241017699241638,0.21726515889167786,0.05757976695895195,0.3090570569038391,0.21590504050254822,0.8357964754104614,0.48415252566337585,0.14291800558567047
1777990478.1285775,0.9999505281448364,0.007995468564331532,0.005916522815823555,0.0002746022946666926,0.9241017699241638,0.21726515889167786,0.05757976695895195,0.3090570569038391,0.21590504050254822,0.8357964754104614,0.48415252566337585,0.14291800558567047
1777990478.1335812,0.9999507069587708,0.007921974174678326,0.005974436178803444,0.00032592538627795875,0.9241017699241638,0.21726515889167786,0.05757976695895195,0.3090570569038391,0.21590504050254822,0.8357964754104614,0.48415252566337585,0.14291800558567047
1777990478.1385763,0.9999507069587708,0.007921974174678326,0.005974436178803444,0.00032592538627795875,0.9241017699241638,0.21726515889167786,0.05757976695895195,0.3090570569038391,0.22054162621498108,0.8358910083770752,0.4814102351665497,0.1445396989583969
1777990478.1435757,0.9999507069587708,0.007921974174678326,0.005974436178803444,0.00032592538627795875,0.9241017699241638,0.21726515889167786,0.05757976695895195,0.3090570569038391,0.22054162621498108,0.8358910083770752,0.4814102351665497,0.1445396989583969
1777990478.1485772,0.9999507069587708,0.007921974174678326,0.005974436178803444,0.00032592538627795875,0.9241017699241638,0.21726515889167786,0.05757976695895195,0.3090570569038391,0.22054162621498108,0.8358910083770752,0.4814102351665497,0.1445396989583969
1777990478.1535826,0.9999507069587708,0.007921974174678326,0.005974436178803444,0.00032592538627795875,0.9261348247528076,0.21489915251731873,0.05556793883442879,0.3049671947956085,0.22054162621498108,0.8358910083770752,0.4814102351665497,0.1445396989583969
1777990478.158576,0.9999505281448364,0.007976345717906952,0.005943672731518745,0.00032205056049861014,0.9261348247528076,0.21489915251731873,0.05556793883442879,0.3049671947956085,0.22054162621498108,0.8358910083770752,0.4814102351665497,0.1445396989583969
1777990478.16358,0.9999505281448364,0.007976345717906952,0.005943672731518745,0.00032205056049861014,0.9277894496917725,0.21271558105945587,0.05381760746240616,0.3017655909061432,0.22054162621498108,0.8358910083770752,0.4814102351665497,0.1445396989583969
1777990478.1685727,0.9999505281448364,0.007976345717906952,0.005943672731518745,0.00032205056049861014,0.9277894496917725,0.21271558105945587,0.05381760746240616,0.3017655909061432,0.22054162621498108,0.8358910083770752,0.4814102351665497,0.1445396989583969
1777990478.173578,0.9999505281448364,0.007976345717906952,0.005943672731518745,0.00032205056049861014,0.9277894496917725,0.21271558105945587,0.05381760746240616,0.3017655909061432,0.22054162621498108,0.8358910083770752,0.4814102351665497,0.1445396989583969
1777990478.1785738,0.9999505281448364,0.007976345717906952,0.005943672731518745,0.00032205056049861014,0.9277894496917725,0.21271558105945587,0.05381760746240616,0.3017655909061432,0.22054162621498108,0.8358910083770752,0.4814102351665497,0.1445396989583969
1777990478.1835737,0.9999505281448364,0.007976345717906952,0.005943672731518745,0.00032205056049861014,0.9277894496917725,0.21271558105945587,0.05381760746240616,0.3017655909061432,0.2305714339017868,0.8360080718994141,0.47555434703826904,0.1475645750761032
1777990478.1885781,0.999950647354126,0.007977135479450226,0.005917462520301342,0.0002776169858407229,0.9277894496917725,0.21271558105945587,0.05381760746240616,0.3017655909061432,0.23552344739437103,0.8361172676086426,0.4724733829498291,0.1490156054496765
1777990478.1935768,0.999950647354126,0.007977135479450226,0.005917462520301342,0.0002776169858407229,0.9305523633956909,0.20934373140335083,0.05110732465982437,0.29603296518325806,0.23552344739437103,0.8361172676086426,0.4724733829498291,0.1490156054496765
1777990478.1985774,0.999950647354126,0.007977135479450226,0.005917462520301342,0.0002776169858407229,0.9305523633956909,0.20934373140335083,0.05110732465982437,0.29603296518325806,0.23552344739437103,0.8361172676086426,0.4724733829498291,0.1490156054496765
1777990478.2035737,0.999950647354126,0.007977135479450226,0.005917462520301342,0.0002776169858407229,0.9305523633956909,0.20934373140335083,0.05110732465982437,0.29603296518325806,0.23552344739437103,0.8361172676086426,0.4724733829498291,0.1490156054496765
1777990478.208573,0.999950647354126,0.007977135479450226,0.005917462520301342,0.0002776169858407229,0.9315358400344849,0.208164244890213,0.05014047026634216,0.293929785490036,0.23552344739437103,0.8361172676086426,0.4724733829498291,0.1490156054496765
1777990478.213578,0.999950647354126,0.007977135479450226,0.005917462520301342,0.0002776169858407229,0.9315358400344849,0.208164244890213,0.05014047026634216,0.293929785490036,0.23552344739437103,0.8361172676086426,0.4724733829498291,0.1490156054496765
1777990478.2185767,0.999950647354126,0.007977135479450226,0.005917462520301342,0.0002776169858407229,0.9315358400344849,0.208164244890213,0.05014047026634216,0.293929785490036,0.23552344739437103,0.8361172676086426,0.4724733829498291,0.1490156054496765
1777990478.223581,0.999950647354126,0.007977135479450226,0.005917462520301342,0.0002776169858407229,0.9315358400344849,0.208164244890213,0.05014047026634216,0.293929785490036,0.23552344739437103,0.8361172676086426,0.4724733829498291,0.1490156054496765
1777990478.2285728,0.999950647354126,0.007977135479450226,0.005917462520301342,0.0002776169858407229,0.9315358400344849,0.208164244890213,0.05014047026634216,0.293929785490036,0.23552344739437103,0.8361172676086426,0.4724733829498291,0.1490156054496765
1777990478.2335768,0.9999515414237976,0.007872648537158966,0.005917979404330254,0.0002160905278287828,0.9315358400344849,0.208164244890213,0.05014047026634216,0.293929785490036,0.24513281881809235,0.8367503881454468,0.4655938148498535,0.15159544348716736
1777990478.2385828,0.9999508261680603,0.007941181771457195,0.005944682285189629,0.00024568315711803734,0.9315358400344849,0.208164244890213,0.05014047026634216,0.293929785490036,0.24513281881809235,0.8367503881454468,0.4655938148498535,0.15159544348716736
1777990478.2435732,0.9999508261680603,0.007941181771457195,0.005944682285189629,0.00024568315711803734,0.9340726137161255,0.20525871217250824,0.04763421043753624,0.28828513622283936,0.24966800212860107,0.8372591733932495,0.46197274327278137,0.15246087312698364
1777990478.2485783,0.9999508857727051,0.007938430644571781,0.00593231339007616,0.00024302027304656804,0.9340726137161255,0.20525871217250824,0.04763421043753624,0.28828513622283936,0.24966800212860107,0.8372591733932495,0.46197274327278137,0.15246087312698364
1777990478.253582,0.9999508857727051,0.007938430644571781,0.00593231339007616,0.00024302027304656804,0.936107873916626,0.20311394333839417,0.045546501874923706,0.28349992632865906,0.24966800212860107,0.8372591733932495,0.46197274327278137,0.15246087312698364
1777990478.258582,0.9999508857727051,0.007938430644571781,0.00593231339007616,0.00024302027304656804,0.936107873916626,0.20311394333839417,0.045546501874923706,0.28349992632865906,0.24966800212860107,0.8372591733932495,0.46197274327278137,0.15246087312698364
1777990478.2635753,0.9999508857727051,0.007938430644571781,0.00593231339007616,0.00024302027304656804,0.936107873916626,0.20311394333839417,0.045546501874923706,0.28349992632865906,0.24966800212860107,0.8372591733932495,0.46197274327278137,0.15246087312698364
1777990478.2685769,0.9999508857727051,0.007938430644571781,0.00593231339007616,0.00024302027304656804,0.936107873916626,0.20311394333839417,0.045546501874923706,0.28349992632865906,0.24966800212860107,0.8372591733932495,0.46197274327278137,0.15246087312698364
1777990478.2735841,0.9999508857727051,0.007938430644571781,0.00593231339007616,0.00024302027304656804,0.936107873916626,0.20311394333839417,0.045546501874923706,0.28349992632865906,0.24966800212860107,0.8372591733932495,0.46197274327278137,0.15246087312698364
1777990478.278579,0.9999508857727051,0.007938430644571781,0.00593231339007616,0.00024302027304656804,0.936107873916626,0.20311394333839417,0.045546501874923706,0.28349992632865906,0.24966800212860107,0.8372591733932495,0.46197274327278137,0.15246087312698364
1777990478.2835748,0.9999522566795349,0.007796364836394787,0.005901450291275978,0.00020835490431636572,0.9392573237419128,0.19993187487125397,0.042658623307943344,0.2756868302822113,0.24966800212860107,0.8372591733932495,0.46197274327278137,0.15246087312698364
1777990478.2885766,0.9999522566795349,0.007796364836394787,0.005901450291275978,0.00020835490431636572,0.9392573237419128,0.19993187487125397,0.042658623307943344,0.2756868302822113,0.2590887248516083,0.8383080363273621,0.45430779457092285,0.1540035754442215
1777990478.2935755,0.9999522566795349,0.007796364836394787,0.005901450291275978,0.00020835490431636572,0.9392573237419128,0.19993187487125397,0.042658623307943344,0.2756868302822113,0.26817938685417175,0.8398237228393555,0.44576939940452576,0.15513098239898682
1777990478.2985747,0.9999516606330872,0.007789549417793751,0.00598553940653801,0.0002628123911563307,0.9408156871795654,0.19844025373458862,0.04114127159118652,0.27165213227272034,0.26817938685417175,0.8398237228393555,0.44576939940452576,0.15513098239898682
1777990478.3035846,0.9999516606330872,0.007789549417793751,0.00598553940653801,0.0002628123911563307,0.9408156871795654,0.19844025373458862,0.04114127159118652,0.27165213227272034,0.26817938685417175,0.8398237228393555,0.44576939940452576,0.15513098239898682
1777990478.3085785,0.9999516606330872,0.007789549417793751,0.00598553940653801,0.0002628123911563307,0.9408156871795654,0.19844025373458862,0.04114127159118652,0.27165213227272034,0.26817938685417175,0.8398237228393555,0.44576939940452576,0.15513098239898682
1777990478.3135839,0.9999516606330872,0.007789549417793751,0.00598553940653801,0.0002628123911563307,0.9408156871795654,0.19844025373458862,0.04114127159118652,0.27165213227272034,0.26817938685417175,0.8398237228393555,0.44576939940452576,0.15513098239898682
1777990478.3185825,0.9999516606330872,0.007789549417793751,0.00598553940653801,0.0002628123911563307,0.9408156871795654,0.19844025373458862,0.04114127159118652,0.27165213227272034,0.27569177746772766,0.8417963981628418,0.43738359212875366,0.15514005720615387
1777990478.3235822,0.9999516606330872,0.007789549417793751,0.00598553940653801,0.0002628123911563307,0.9408156871795654,0.19844025373458862,0.04114127159118652,0.27165213227272034,0.27569177746772766,0.8417963981628418,0.43738359212875366,0.15514005720615387
1777990478.3285778,0.9999516606330872,0.007789549417793751,0.00598553940653801,0.0002628123911563307,0.9408156871795654,0.19844025373458862,0.04114127159118652,0.27165213227272034,0.27569177746772766,0.8417963981628418,0.43738359212875366,0.15514005720615387
1777990478.3335817,0.9999516606330872,0.007789549417793751,0.00598553940653801,0.0002628123911563307,0.9437431693077087,0.19637969136238098,0.0383412130177021,0.2632753849029541,0.2784055769443512,0.8431279063224792,0.43330442905426025,0.1545085459947586
1777990478.3386316,0.9999513030052185,0.00782446376979351,0.0060114674270153046,0.00025545607786625624,0.9437431693077087,0.19637969136238098,0.0383412130177021,0.2632753849029541,0.2784055769443512,0.8431279063224792,0.43330442905426025,0.1545085459947586
1777990478.343584,0.9999513030052185,0.00782446376979351,0.0060114674270153046,0.00025545607786625624,0.9437431693077087,0.19637969136238098,0.0383412130177021,0.2632753849029541,0.2784055769443512,0.8431279063224792,0.43330442905426025,0.1545085459947586
1777990478.348586,0.9999513030052185,0.00782446376979351,0.0060114674270153046,0.00025545607786625624,0.9451190233230591,0.19584494829177856,0.037112586200237274,0.2588775157928467,0.2784055769443512,0.8431279063224792,0.43330442905426025,0.1545085459947586
1777990478.3535852,0.9999517202377319,0.007791948039084673,0.005994892679154873,0.00023662587045691907,0.9451190233230591,0.19584494829177856,0.037112586200237274,0.2588775157928467,0.2784055769443512,0.8431279063224792,0.43330442905426025,0.1545085459947586
1777990478.35858,0.9999517202377319,0.007791948039084673,0.005994892679154873,0.00023662587045691907,0.9451190233230591,0.19584494829177856,0.037112586200237274,0.2588775157928467,0.2784055769443512,0.8431279063224792,0.43330442905426025,0.1545085459947586
1777990478.3635767,0.9999517202377319,0.007791948039084673,0.005994892679154873,0.00023662587045691907,0.9451190233230591,0.19584494829177856,0.037112586200237274,0.2588775157928467,0.2823270261287689,0.8462488055229187,0.4253059923648834,0.15254244208335876
1777990478.3685808,0.9999517202377319,0.007791948039084673,0.005994892679154873,0.00023662587045691907,0.9451190233230591,0.19584494829177856,0.037112586200237274,0.2588775157928467,0.2823270261287689,0.8462488055229187,0.4253059923648834,0.15254244208335876
1777990478.3735812,0.9999517202377319,0.007791948039084673,0.005994892679154873,0.00023662587045691907,0.9451190233230591,0.19584494829177856,0.037112586200237274,0.2588775157928467,0.2823270261287689,0.8462488055229187,0.4253059923648834,0.15254244208335876
1777990478.3785784,0.9999517202377319,0.007791948039084673,0.005994892679154873,0.00023662587045691907,0.9451190233230591,0.19584494829177856,0.037112586200237274,0.2588775157928467,0.2839576005935669,0.8479077219963074,0.42130520939826965,0.15140210092067719
1777990478.3835802,0.9999517202377319,0.007791948039084673,0.005994892679154873,0.00023662587045691907,0.9451190233230591,0.19584494829177856,0.037112586200237274,0.2588775157928467,0.2839576005935669,0.8479077219963074,0.42130520939826965,0.15140210092067719
1777990478.3885803,0.9999517202377319,0.007791948039084673,0.005994892679154873,0.00023662587045691907,0.9477559924125671,0.1950739175081253,0.0346028096973896,0.25001466274261475,0.2839576005935669,0.8479077219963074,0.42130520939826965,0.15140210092067719
1777990478.3935845,0.9999517202377319,0.007791948039084673,0.005994892679154873,0.00023662587045691907,0.9490634799003601,0.19463172554969788,0.033338725566864014,0.24553117156028748,0.2839576005935669,0.8479077219963074,0.42130520939826965,0.15140210092067719
1777990478.3985853,0.9999517202377319,0.007791948039084673,0.005994892679154873,0.00023662587045691907,0.9490634799003601,0.19463172554969788,0.033338725566864014,0.24553117156028748,0.2839576005935669,0.8479077219963074,0.42130520939826965,0.15140210092067719
1777990478.4035778,0.999951958656311,0.007768389768898487,0.005987068638205528,0.00022721258574165404,0.9490634799003601,0.19463172554969788,0.033338725566864014,0.24553117156028748,0.2839576005935669,0.8479077219963074,0.42130520939826965,0.15140210092067719
1777990478.4085777,0.999951958656311,0.007768389768898487,0.005987068638205528,0.00022721258574165404,0.9490634799003601,0.19463172554969788,0.033338725566864014,0.24553117156028748,0.2868175804615021,0.8514243364334106,0.4131294786930084,0.14878229796886444
1777990478.4135857,0.999951958656311,0.007768389768898487,0.005987068638205528,0.00022721258574165404,0.9490634799003601,0.19463172554969788,0.033338725566864014,0.24553117156028748,0.2868175804615021,0.8514243364334106,0.4131294786930084,0.14878229796886444
1777990478.4185853,0.999951958656311,0.007768389768898487,0.005987068638205528,0.00022721258574165404,0.9517120122909546,0.19342780113220215,0.030749697238206863,0.23639893531799316,0.2868175804615021,0.8514243364334106,0.4131294786930084,0.14878229796886444
1777990478.4235842,0.999951958656311,0.007768389768898487,0.005987068638205528,0.00022721258574165404,0.9517120122909546,0.19342780113220215,0.030749697238206863,0.23639893531799316,0.28790101408958435,0.8533680438995361,0.4088764786720276,0.14729589223861694
1777990478.4285848,0.999951958656311,0.007752914447337389,0.00599712086841464,0.00020780782506335527,0.9517120122909546,0.19342780113220215,0.030749697238206863,0.23639893531799316,0.28790101408958435,0.8533680438995361,0.4088764786720276,0.14729589223861694
1777990478.433579,0.999951958656311,0.007752914447337389,0.00599712086841464,0.00020780782506335527,0.9517120122909546,0.19342780113220215,0.030749697238206863,0.23639893531799316,0.28790101408958435,0.8533680438995361,0.4088764786720276,0.14729589223861694
1777990478.4385817,0.999951958656311,0.007752914447337389,0.00599712086841464,0.00020780782506335527,0.9530784487724304,0.19258242845535278,0.02938598208129406,0.23171105980873108,0.28790101408958435,0.8533680438995361,0.4088764786720276,0.14729589223861694
1777990478.443582,0.999951958656311,0.007752914447337389,0.00599712086841464,0.00020780782506335527,0.9530784487724304,0.19258242845535278,0.02938598208129406,0.23171105980873108,0.28790101408958435,0.8533680438995361,0.4088764786720276,0.14729589223861694
1777990478.448579,0.999951958656311,0.007752914447337389,0.00599712086841464,0.00020780782506335527,0.9530784487724304,0.19258242845535278,0.02938598208129406,0.23171105980873108,0.28790101408958435,0.8533680438995361,0.4088764786720276,0.14729589223861694
1777990478.4535809,0.999951958656311,0.007752914447337389,0.00599712086841464,0.00020780782506335527,0.9530784487724304,0.19258242845535278,0.02938598208129406,0.23171105980873108,0.28790101408958435,0.8533680438995361,0.4088764786720276,0.14729589223861694
1777990478.458584,0.999951958656311,0.007752914447337389,0.00599712086841464,0.00020780782506335527,0.9530784487724304,0.19258242845535278,0.02938598208129406,0.23171105980873108,0.28790101408958435,0.8533680438995361,0.4088764786720276,0.14729589223861694
1777990478.4635892,0.9999520778656006,0.007717549800872803,0.006022975314408541,0.00020248611690476537,0.9559122323989868,0.19039073586463928,0.02652781270444393,0.2219896912574768,0.28790101408958435,0.8533680438995361,0.4088764786720276,0.14729589223861694
1777990478.4685845,0.9999520778656006,0.007717549800872803,0.006022975314408541,0.00020248611690476537,0.9559122323989868,0.19039073586463928,0.02652781270444393,0.2219896912574768,0.2901865243911743,0.8596680760383606,0.39567556977272034,0.14213892817497253
1777990478.4735844,0.9999520778656006,0.007717549800872803,0.006022975314408541,0.00020248611690476537,0.9559122323989868,0.19039073586463928,0.02652781270444393,0.2219896912574768,0.2901865243911743,0.8596680760383606,0.39567556977272034,0.14213892817497253
1777990478.4785817,0.9999516010284424,0.007723105140030384,0.0060895271599292755,0.00026194084784947336,0.9559122323989868,0.19039073586463928,0.02652781270444393,0.2219896912574768,0.2901865243911743,0.8596680760383606,0.39567556977272034,0.14213892817497253
1777990478.4835818,0.9999516010284424,0.007723105140030384,0.0060895271599292755,0.00026194084784947336,0.957352876663208,0.18911491334438324,0.025083772838115692,0.21698330342769623,0.2901865243911743,0.8596680760383606,0.39567556977272034,0.14213892817497253
1777990478.4885864,0.9999514818191528,0.007717217318713665,0.006115620024502277,0.0002819256333168596,0.957352876663208,0.18911491334438324,0.025083772838115692,0.21698330342769623,0.2901865243911743,0.8596680760383606,0.39567556977272034,0.14213892817497253
1777990478.4935837,0.9999514818191528,0.007717217318713665,0.006115620024502277,0.0002819256333168596,0.957352876663208,0.18911491334438324,0.025083772838115692,0.21698330342769623,0.2901865243911743,0.8596680760383606,0.39567556977272034,0.14213892817497253
1777990478.4985828,0.9999514818191528,0.007717217318713665,0.006115620024502277,0.0002819256333168596,0.957352876663208,0.18911491334438324,0.025083772838115692,0.21698330342769623,0.29103729128837585,0.8641377687454224,0.38658806681632996,0.13824982941150665
1777990478.5035825,0.9999514818191528,0.007717217318713665,0.006115620024502277,0.0002819256333168596,0.957352876663208,0.18911491334438324,0.025083772838115692,0.21698330342769623,0.29103729128837585,0.8641377687454224,0.38658806681632996,0.13824982941150665
1777990478.5085804,0.9999514818191528,0.007717217318713665,0.006115620024502277,0.0002819256333168596,0.9602144956588745,0.18620021641254425,0.022099032998085022,0.2069525122642517,0.29103729128837585,0.8641377687454224,0.38658806681632996,0.13824982941150665
1777990478.513585,0.9999514818191528,0.007717217318713665,0.006115620024502277,0.0002819256333168596,0.9602144956588745,0.18620021641254425,0.022099032998085022,0.2069525122642517,0.29103729128837585,0.8641377687454224,0.38658806681632996,0.13824982941150665
1777990478.5185835,0.9999517798423767,0.007636528927832842,0.00616834033280611,0.0003249610308557749,0.9602144956588745,0.18620021641254425,0.022099032998085022,0.2069525122642517,0.2913951575756073,0.8663751482963562,0.38200807571411133,0.13620832562446594
1777990478.5235796,0.9999517798423767,0.007636528927832842,0.00616834033280611,0.0003249610308557749,0.9616612195968628,0.18451905250549316,0.020572926849126816,0.2018345296382904,0.2913951575756073,0.8663751482963562,0.38200807571411133,0.13620832562446594
1777990478.5285807,0.9999517798423767,0.007636528927832842,0.00616834033280611,0.0003249610308557749,0.9616612195968628,0.18451905250549316,0.020572926849126816,0.2018345296382904,0.2913951575756073,0.8663751482963562,0.38200807571411133,0.13620832562446594
1777990478.533586,0.9999517798423767,0.007636528927832842,0.00616834033280611,0.0003249610308557749,0.9616612195968628,0.18451905250549316,0.020572926849126816,0.2018345296382904,0.2913951575756073,0.8663751482963562,0.38200807571411133,0.13620832562446594
1777990478.538581,0.9999518394470215,0.007584140170365572,0.006224015261977911,0.00035852499422617257,0.9616612195968628,0.18451905250549316,0.020572926849126816,0.2018345296382904,0.2913951575756073,0.8663751482963562,0.38200807571411133,0.13620832562446594
1777990478.5435843,0.9999518394470215,0.007584140170365572,0.006224015261977911,0.00035852499422617257,0.9616612195968628,0.18451905250549316,0.020572926849126816,0.2018345296382904,0.29155102372169495,0.870749831199646,0.37335604429244995,0.1319015622138977
1777990478.5485826,0.9999518394470215,0.007584140170365572,0.006224015261977911,0.00035852499422617257,0.9616612195968628,0.18451905250549316,0.020572926849126816,0.2018345296382904,0.29155102372169495,0.870749831199646,0.37335604429244995,0.1319015622138977
1777990478.5535846,0.9999518394470215,0.007584140170365572,0.006224015261977911,0.00035852499422617257,0.9616612195968628,0.18451905250549316,0.020572926849126816,0.2018345296382904,0.29155102372169495,0.870749831199646,0.37335604429244995,0.1319015622138977
1777990478.5585847,0.9999518394470215,0.007584140170365572,0.006224015261977911,0.00035852499422617257,0.9616612195968628,0.18451905250549316,0.020572926849126816,0.2018345296382904,0.29155102372169495,0.870749831199646,0.37335604429244995,0.1319015622138977
1777990478.5635822,0.9999520182609558,0.007589480374008417,0.0061882613226771355,0.00032760578324086964,0.9616612195968628,0.18451905250549316,0.020572926849126816,0.2018345296382904,0.2912527620792389,0.8729459047317505,0.3692435920238495,0.1296014040708542
1777990478.5685828,0.9999520182609558,0.007589480374008417,0.0061882613226771355,0.00032760578324086964,0.9644830226898193,0.1807631552219391,0.01745964214205742,0.19181352853775024,0.2912527620792389,0.8729459047317505,0.3692435920238495,0.1296014040708542
1777990478.5735855,0.9999520182609558,0.007589480374008417,0.0061882613226771355,0.00032760578324086964,0.9662249684333801,0.17813897132873535,0.015475360676646233,0.18557050824165344,0.2912527620792389,0.8729459047317505,0.3692435920238495,0.1296014040708542
1777990478.5785854,0.9999520182609558,0.007589480374008417,0.0061882613226771355,0.00032760578324086964,0.9662249684333801,0.17813897132873535,0.015475360676646233,0.18557050824165344,0.2912527620792389,0.8729459047317505,0.3692435920238495,0.1296014040708542
1777990478.583584,0.9999520182609558,0.007589480374008417,0.0061882613226771355,0.00032760578324086964,0.9662249684333801,0.17813897132873535,0.015475360676646233,0.18557050824165344,0.2912527620792389,0.8729459047317505,0.3692435920238495,0.1296014040708542
1777990478.5885825,0.9999520182609558,0.007589480374008417,0.0061882613226771355,0.00032760578324086964,0.9662249684333801,0.17813897132873535,0.015475360676646233,0.18557050824165344,0.2912527620792389,0.8729459047317505,0.3692435920238495,0.1296014040708542
1777990478.593584,0.9999522566795349,0.007569374516606331,0.006176538299769163,0.00030152880935929716,0.9662249684333801,0.17813897132873535,0.015475360676646233,0.18557050824165344,0.2897394001483917,0.87727290391922,0.36160582304000854,0.12523888051509857
1777990478.5985842,0.9999522566795349,0.007569374516606331,0.006176538299769163,0.00030152880935929716,0.9662249684333801,0.17813897132873535,0.015475360676646233,0.18557050824165344,0.2897394001483917,0.87727290391922,0.36160582304000854,0.12523888051509857
1777990478.6035845,0.9999522566795349,0.007569374516606331,0.006176538299769163,0.00030152880935929716,0.968665361404419,0.1738976091146469,0.012784825637936592,0.17687202990055084,0.28879475593566895,0.8792799711227417,0.35813409090042114,0.12330617010593414
1777990478.6085906,0.9999522566795349,0.007569374516606331,0.006176538299769163,0.00030152880935929716,0.968665361404419,0.1738976091146469,0.012784825637936592,0.17687202990055084,0.28879475593566895,0.8792799711227417,0.35813409090042114,0.12330617010593414
1777990478.6135862,0.9999522566795349,0.007569374516606331,0.006176538299769163,0.00030152880935929716,0.969450831413269,0.17232903838157654,0.011942200362682343,0.1741415560245514,0.28879475593566895,0.8792799711227417,0.35813409090042114,0.12330617010593414
1777990478.6185853,0.9999522566795349,0.007569374516606331,0.006176538299769163,0.00030152880935929716,0.969450831413269,0.17232903838157654,0.011942200362682343,0.1741415560245514,0.28879475593566895,0.8792799711227417,0.35813409090042114,0.12330617010593414
1777990478.6235857,0.9999522566795349,0.007569374516606331,0.006176538299769163,0.00030152880935929716,0.969450831413269,0.17232903838157654,0.011942200362682343,0.1741415560245514,0.28879475593566895,0.8792799711227417,0.35813409090042114,0.12330617010593414
1777990478.6285875,0.999952495098114,0.007520479150116444,0.006203116849064827,0.0003041451855096966,0.969450831413269,0.17232903838157654,0.011942200362682343,0.1741415560245514,0.28879475593566895,0.8792799711227417,0.35813409090042114,0.12330617010593414
1777990478.6335862,0.999952495098114,0.007520479150116444,0.006203116849064827,0.0003041451855096966,0.969450831413269,0.17232903838157654,0.011942200362682343,0.1741415560245514,0.28879475593566895,0.8792799711227417,0.35813409090042114,0.12330617010593414
1777990478.6385899,0.999952495098114,0.007520479150116444,0.006203116849064827,0.0003041451855096966,0.969450831413269,0.17232903838157654,0.011942200362682343,0.1741415560245514,0.2866040766239166,0.8829079270362854,0.35208043456077576,0.11987991631031036
1777990478.643587,0.9999523758888245,0.007481479551643133,0.006263456307351589,0.00033853715285658836,0.969450831413269,0.17232903838157654,0.011942200362682343,0.1741415560245514,0.2866040766239166,0.8829079270362854,0.35208043456077576,0.11987991631031036
1777990478.6485877,0.9999523758888245,0.007481479551643133,0.006263456307351589,0.00033853715285658836,0.969450831413269,0.17232903838157654,0.011942200362682343,0.1741415560245514,0.2853933870792389,0.8845295310020447,0.34957706928253174,0.11812745779752731
1777990478.6535907,0.9999523758888245,0.007481479551643133,0.006263456307351589,0.00033853715285658836,0.969450831413269,0.17232903838157654,0.011942200362682343,0.1741415560245514,0.2853933870792389,0.8845295310020447,0.34957706928253174,0.11812745779752731
1777990478.6585886,0.9999523758888245,0.007481479551643133,0.006263456307351589,0.00033853715285658836,0.9728201031684875,0.16434933245182037,0.008340129628777504,0.16291339695453644,0.2853933870792389,0.8845295310020447,0.34957706928253174,0.11812745779752731
1777990478.663587,0.9999523758888245,0.007481479551643133,0.006263456307351589,0.00033853715285658836,0.9728201031684875,0.16434933245182037,0.008340129628777504,0.16291339695453644,0.2853933870792389,0.8845295310020447,0.34957706928253174,0.11812745779752731
1777990478.6685898,0.9999523758888245,0.007481479551643133,0.006263456307351589,0.00033853715285658836,0.9728201031684875,0.16434933245182037,0.008340129628777504,0.16291339695453644,0.2853933870792389,0.8845295310020447,0.34957706928253174,0.11812745779752731
1777990478.6735847,0.9999523758888245,0.007481479551643133,0.006263456307351589,0.00033853715285658836,0.9728201031684875,0.16434933245182037,0.008340129628777504,0.16291339695453644,0.2853933870792389,0.8845295310020447,0.34957706928253174,0.11812745779752731
1777990478.678588,0.9999523758888245,0.007481479551643133,0.006263456307351589,0.00033853715285658836,0.9728201031684875,0.16434933245182037,0.008340129628777504,0.16291339695453644,0.28320372104644775,0.8875559568405151,0.3448881506919861,0.1144220232963562
1777990478.6835916,0.9999523758888245,0.007481479551643133,0.006263456307351589,0.00033853715285658836,0.9728201031684875,0.16434933245182037,0.008340129628777504,0.16291339695453644,0.28320372104644775,0.8875559568405151,0.3448881506919861,0.1144220232963562
1777990478.6885853,0.9999531507492065,0.007414977066218853,0.006213338579982519,0.0003146108065266162,0.9747655391693115,0.15805430710315704,0.006118236109614372,0.15752357244491577,0.28320372104644775,0.8875559568405151,0.3448881506919861,0.1144220232963562
1777990478.693589,0.9999531507492065,0.007414977066218853,0.006213338579982519,0.0003146108065266162,0.9747655391693115,0.15805430710315704,0.006118236109614372,0.15752357244491577,0.2817091643810272,0.8890103101730347,0.3428454101085663,0.11294994503259659
1777990478.6985888,0.9999534487724304,0.00740722706541419,0.006180870346724987,0.00027692262665368617,0.9747655391693115,0.15805430710315704,0.006118236109614372,0.15752357244491577,0.2817091643810272,0.8890103101730347,0.3428454101085663,0.11294994503259659
1777990478.7035866,0.9999534487724304,0.00740722706541419,0.006180870346724987,0.00027692262665368617,0.9756935834884644,0.15462782979011536,0.005215217359364033,0.15519408881664276,0.2817091643810272,0.8890103101730347,0.3428454101085663,0.11294994503259659
1777990478.708593,0.9999534487724304,0.00740722706541419,0.006180870346724987,0.00027692262665368617,0.9756935834884644,0.15462782979011536,0.005215217359364033,0.15519408881664276,0.2817091643810272,0.8890103101730347,0.3428454101085663,0.11294994503259659
1777990478.7135944,0.9999534487724304,0.00740722706541419,0.006180870346724987,0.00027692262665368617,0.9756935834884644,0.15462782979011536,0.005215217359364033,0.15519408881664276,0.2817091643810272,0.8890103101730347,0.3428454101085663,0.11294994503259659
1777990478.7185848,0.9999534487724304,0.00740722706541419,0.006180870346724987,0.00027692262665368617,0.9756935834884644,0.15462782979011536,0.005215217359364033,0.15519408881664276,0.2817091643810272,0.8890103101730347,0.3428454101085663,0.11294994503259659
1777990478.7235901,0.9999534487724304,0.00740722706541419,0.006180870346724987,0.00027692262665368617,0.9756935834884644,0.15462782979011536,0.005215217359364033,0.15519408881664276,0.2817091643810272,0.8890103101730347,0.3428454101085663,0.11294994503259659
